[{"address":"26038 AL-75 N","approximate":false,"city":"Allgood","country":"US","day":4,"location":"Near US Post Office","name":"Grupo 24 Horas","notes":"Contact: Amado (tel. 678-978-3573)\n","postal_code":"35013","region":"Reuniones Españolas de AA","slug":"d24-24horas-Thursday-19:30","state":"AL","time":"19:30","timezone":"America/Chicago","types":["ES","B"],"url":"https://aa1-es.sober.page//meetings/d24-24horas"},{"address":"26038 AL-75 N","approximate":false,"city":"Allgood","country":"US","day":2,"location":"Near US Post Office","name":"Grupo 24 Horas","notes":"Contact: Amado (tel. 678-978-3573)\n","postal_code":"35013","region":"Reuniones Españolas de AA","slug":"d24-24horas-Tuesday-19:30","state":"AL","time":"19:30","timezone":"America/Chicago","types":["ES","B"],"url":"https://aa1-es.sober.page//meetings/d24-24horas"},{"address":"26038 AL-75 N","approximate":false,"city":"Allgood","country":"US","day":3,"location":"Near US Post Office","name":"Grupo 24 Horas","notes":"Contact: Amado (tel. 678-978-3573)\n","postal_code":"35013","region":"Reuniones Españolas de AA","slug":"d24-24horas-Wednesday-19:30","state":"AL","time":"19:30","timezone":"America/Chicago","types":["ES","B"],"url":"https://aa1-es.sober.page//meetings/d24-24horas"},{"address":"110 Tuscaloosa St","approximate":false,"city":"Russellville","country":"US","day":5,"location":"AA Clubhouse","name":"Grupo Nuevo Amanecer","notes":"Contact: Leonardo L. (tel. 256-412-8240)\n","postal_code":"35664","region":"Reuniones Españolas de AA","slug":"d24-amanecer-Friday-19:00","state":"AL","time":"19:00","timezone":"America/Chicago","types":["ES","B"],"url":"https://aa1-es.sober.page//meetings/d24-amanecer"},{"address":"110 Tuscaloosa St","approximate":false,"city":"Russellville","country":"US","day":1,"location":"AA Clubhouse","name":"Grupo Nuevo Amanecer","notes":"Contact: Leonardo L. (tel. 256-412-8240)\n","postal_code":"35664","region":"Reuniones Españolas de AA","slug":"d24-amanecer-Monday-19:00","state":"AL","time":"19:00","timezone":"America/Chicago","types":["ES","B"],"url":"https://aa1-es.sober.page//meetings/d24-amanecer"},{"address":"110 Tuscaloosa St","approximate":false,"city":"Russellville","country":"US","day":6,"location":"AA Clubhouse","name":"Grupo Nuevo Amanecer","notes":"Contact: Leonardo L. (tel. 256-412-8240)\n","postal_code":"35664","region":"Reuniones Españolas de AA","slug":"d24-amanecer-Saturday-19:00","state":"AL","time":"19:00","timezone":"America/Chicago","types":["ES","B"],"url":"https://aa1-es.sober.page//meetings/d24-amanecer"},{"address":"110 Tuscaloosa St","approximate":false,"city":"Russellville","country":"US","day":4,"location":"AA Clubhouse","name":"Grupo Nuevo Amanecer","notes":"Contact: Leonardo L. (tel. 256-412-8240)\n","postal_code":"35664","region":"Reuniones Españolas de AA","slug":"d24-amanecer-Thursday-19:00","state":"AL","time":"19:00","timezone":"America/Chicago","types":["ES","B"],"url":"https://aa1-es.sober.page//meetings/d24-amanecer"},{"address":"110 Tuscaloosa St","approximate":false,"city":"Russellville","country":"US","day":2,"location":"AA Clubhouse","name":"Grupo Nuevo Amanecer","notes":"Contact: Leonardo L. (tel. 256-412-8240)\n","postal_code":"35664","region":"Reuniones Españolas de AA","slug":"d24-amanecer-Tuesday-19:00","state":"AL","time":"19:00","timezone":"America/Chicago","types":["ES","B"],"url":"https://aa1-es.sober.page//meetings/d24-amanecer"},{"address":"110 Tuscaloosa St","approximate":false,"city":"Russellville","country":"US","day":3,"location":"AA Clubhouse","name":"Grupo Nuevo Amanecer","notes":"Contact: Leonardo L. (tel. 256-412-8240)\n","postal_code":"35664","region":"Reuniones Españolas de AA","slug":"d24-amanecer-Wednesday-19:00","state":"AL","time":"19:00","timezone":"America/Chicago","types":["ES","B"],"url":"https://aa1-es.sober.page//meetings/d24-amanecer"},{"address":"3412 Atlanta Hwy","approximate":false,"city":"Montgomery","country":"US","day":1,"location":"Strip Mall","name":"Grupo Ayudate a ti Mismo","notes":"Contact: Eric (tel. 334-201-6767)\n","postal_code":"36109","region":"Reuniones Españolas de AA","slug":"d24-ayudate-Monday-19:30","state":"AL","time":"19:30","timezone":"America/Chicago","types":["ES","B"],"url":"https://aa1-es.sober.page//meetings/d24-ayudate"},{"address":"3412 Atlanta Hwy","approximate":false,"city":"Montgomery","country":"US","day":2,"location":"Strip Mall","name":"Grupo Ayudate a ti Mismo","notes":"Contact: Eric (tel. 334-201-6767)\n","postal_code":"36109","region":"Reuniones Españolas de AA","slug":"d24-ayudate-Tuesday-19:30","state":"AL","time":"19:30","timezone":"America/Chicago","types":["ES","B"],"url":"https://aa1-es.sober.page//meetings/d24-ayudate"},{"address":"3615 University Blvd E.","approximate":false,"city":"Tuscaloosa","country":"US","day":5,"location":"Blue Tin Roof","name":"Grupo Esperanza De Vivir","notes":"Contact: Delio G. (tel. 205-239-6439)\n","postal_code":"35404","region":"Reuniones Españolas de AA","slug":"d24-esperanza-Friday-19:30","state":"AL","time":"19:30","timezone":"America/Chicago","types":["ES","B"],"url":"https://aa1-es.sober.page//meetings/d24-esperanza"},{"address":"3615 University Blvd E.","approximate":false,"city":"Tuscaloosa","country":"US","day":6,"location":"Blue Tin Roof","name":"Grupo Esperanza De Vivir","notes":"Contact: Delio G. (tel. 205-239-6439)\n","postal_code":"35404","region":"Reuniones Españolas de AA","slug":"d24-esperanza-Saturday-19:30","state":"AL","time":"19:30","timezone":"America/Chicago","types":["ES","B"],"url":"https://aa1-es.sober.page//meetings/d24-esperanza"},{"address":"3615 University Blvd E.","approximate":false,"city":"Tuscaloosa","country":"US","day":0,"location":"Blue Tin Roof","name":"Grupo Esperanza De Vivir","notes":"Contact: Delio G. (tel. 205-239-6439)\n","postal_code":"35404","region":"Reuniones Españolas de AA","slug":"d24-esperanza-Sunday-18:00","state":"AL","time":"18:00","timezone":"America/Chicago","types":["ES","B"],"url":"https://aa1-es.sober.page//meetings/d24-esperanza"},{"address":"3615 University Blvd E.","approximate":false,"city":"Tuscaloosa","country":"US","day":3,"location":"Blue Tin Roof","name":"Grupo Esperanza De Vivir","notes":"Contact: Delio G. (tel. 205-239-6439)\n","postal_code":"35404","region":"Reuniones Españolas de AA","slug":"d24-esperanza-Wednesday-19:30","state":"AL","time":"19:30","timezone":"America/Chicago","types":["ES","B"],"url":"https://aa1-es.sober.page//meetings/d24-esperanza"},{"address":"608 Circle Hts","approximate":false,"city":"Bessemer","country":"US","day":5,"location":"Near Metro Truck Rental","name":"Grupo la Ultima Estacion","notes":"Contact: Mario [DCM] (tel. 205-261-9351)\n<br>Daniel [GSR] (tel. 205-201-8005\n","postal_code":"35020","region":"Reuniones Españolas de AA","slug":"d24-estacion-Friday-19:30","state":"AL","time":"19:30","timezone":"America/Chicago","types":["ES","B"],"url":"https://aa1-es.sober.page//meetings/d24-estacion"},{"address":"608 Circle Hts","approximate":false,"city":"Bessemer","country":"US","day":1,"location":"Near Metro Truck Rental","name":"Grupo la Ultima Estacion","notes":"Contact: Mario [DCM] (tel. 205-261-9351)\n<br>Daniel [GSR] (tel. 205-201-8005\n","postal_code":"35020","region":"Reuniones Españolas de AA","slug":"d24-estacion-Monday-19:30","state":"AL","time":"19:30","timezone":"America/Chicago","types":["ES","B"],"url":"https://aa1-es.sober.page//meetings/d24-estacion"},{"address":"608 Circle Hts","approximate":false,"city":"Bessemer","country":"US","day":6,"location":"Near Metro Truck Rental","name":"Grupo la Ultima Estacion","notes":"Contact: Mario [DCM] (tel. 205-261-9351)\n<br>Daniel [GSR] (tel. 205-201-8005\n","postal_code":"35020","region":"Reuniones Españolas de AA","slug":"d24-estacion-Saturday-19:30","state":"AL","time":"19:30","timezone":"America/Chicago","types":["ES","B"],"url":"https://aa1-es.sober.page//meetings/d24-estacion"},{"address":"608 Circle Hts","approximate":false,"city":"Bessemer","country":"US","day":2,"location":"Near Metro Truck Rental","name":"Grupo la Ultima Estacion","notes":"Contact: Mario [DCM] (tel. 205-261-9351)\n<br>Daniel [GSR] (tel. 205-201-8005\n","postal_code":"35020","region":"Reuniones Españolas de AA","slug":"d24-estacion-Tuesday-19:30","state":"AL","time":"19:30","timezone":"America/Chicago","types":["ES","B"],"url":"https://aa1-es.sober.page//meetings/d24-estacion"},{"address":"608 Circle Hts","approximate":false,"city":"Bessemer","country":"US","day":3,"location":"Near Metro Truck Rental","name":"Grupo la Ultima Estacion","notes":"Contact: Mario [DCM] (tel. 205-261-9351)\n<br>Daniel [GSR] (tel. 205-201-8005\n","postal_code":"35020","region":"Reuniones Españolas de AA","slug":"d24-estacion-Wednesday-19:30","state":"AL","time":"19:30","timezone":"America/Chicago","types":["ES","B"],"url":"https://aa1-es.sober.page//meetings/d24-estacion"},{"address":"1028 Commerce Blvd.","approximate":false,"city":"Birmingham","country":"US","day":5,"location":"Trinity CME Church","name":"Grup 3 De Noviembre","notes":"Contact: Victor A. (tel. 205-276-9991)\n","postal_code":"35215","region":"Reuniones Españolas de AA","slug":"d24-grup3-Friday-19:30","state":"AL","time":"19:30","timezone":"America/Chicago","types":["ES","B"],"url":"https://aa1-es.sober.page//meetings/d24-grup3"},{"address":"1028 Commerce Blvd.","approximate":false,"city":"Birmingham","country":"US","day":1,"location":"Trinity CME Church","name":"Grup 3 De Noviembre","notes":"Contact: Victor A. (tel. 205-276-9991)\n","postal_code":"35215","region":"Reuniones Españolas de AA","slug":"d24-grup3-Monday-19:30","state":"AL","time":"19:30","timezone":"America/Chicago","types":["ES","B"],"url":"https://aa1-es.sober.page//meetings/d24-grup3"},{"address":"1028 Commerce Blvd.","approximate":false,"city":"Birmingham","country":"US","day":6,"location":"Trinity CME Church","name":"Grup 3 De Noviembre","notes":"Contact: Victor A. (tel. 205-276-9991)\n","postal_code":"35215","region":"Reuniones Españolas de AA","slug":"d24-grup3-Saturday-19:30","state":"AL","time":"19:30","timezone":"America/Chicago","types":["ES","B"],"url":"https://aa1-es.sober.page//meetings/d24-grup3"},{"address":"1028 Commerce Blvd.","approximate":false,"city":"Birmingham","country":"US","day":4,"location":"Trinity CME Church","name":"Grup 3 De Noviembre","notes":"Contact: Victor A. (tel. 205-276-9991)\n","postal_code":"35215","region":"Reuniones Españolas de AA","slug":"d24-grup3-Thursday-19:30","state":"AL","time":"19:30","timezone":"America/Chicago","types":["ES","B"],"url":"https://aa1-es.sober.page//meetings/d24-grup3"},{"address":"1028 Commerce Blvd.","approximate":false,"city":"Birmingham","country":"US","day":2,"location":"Trinity CME Church","name":"Grup 3 De Noviembre","notes":"Contact: Victor A. (tel. 205-276-9991)\n","postal_code":"35215","region":"Reuniones Españolas de AA","slug":"d24-grup3-Tuesday-19:30","state":"AL","time":"19:30","timezone":"America/Chicago","types":["ES","B"],"url":"https://aa1-es.sober.page//meetings/d24-grup3"},{"address":"1028 Commerce Blvd.","approximate":false,"city":"Birmingham","country":"US","day":3,"location":"Trinity CME Church","name":"Grup 3 De Noviembre","notes":"Contact: Victor A. (tel. 205-276-9991)\n","postal_code":"35215","region":"Reuniones Españolas de AA","slug":"d24-grup3-Wednesday-19:30","state":"AL","time":"19:30","timezone":"America/Chicago","types":["ES","B"],"url":"https://aa1-es.sober.page//meetings/d24-grup3"},{"address":"3201 Triana Blvd SW","approximate":false,"city":"Huntsville","country":"US","day":5,"location":"Near Abogados Centro Legal","name":"Grupo Sendero defe Hsv","notes":null,"postal_code":"35805","region":"Reuniones Españolas de AA","slug":"d24-hsv-Friday-19:00","state":"AL","time":"19:00","timezone":"America/Chicago","types":["ES","B"],"url":"https://aa1-es.sober.page//meetings/d24-hsv"},{"address":"3201 Triana Blvd SW","approximate":false,"city":"Huntsville","country":"US","day":6,"location":"Near Abogados Centro Legal","name":"Grupo Sendero defe Hsv","notes":null,"postal_code":"35805","region":"Reuniones Españolas de AA","slug":"d24-hsv-Saturday-19:00","state":"AL","time":"19:00","timezone":"America/Chicago","types":["ES","B"],"url":"https://aa1-es.sober.page//meetings/d24-hsv"},{"address":"3201 Triana Blvd SW","approximate":false,"city":"Huntsville","country":"US","day":4,"location":"Near Abogados Centro Legal","name":"Grupo Sendero defe Hsv","notes":null,"postal_code":"35805","region":"Reuniones Españolas de AA","slug":"d24-hsv-Thursday-19:00","state":"AL","time":"19:00","timezone":"America/Chicago","types":["ES","B"],"url":"https://aa1-es.sober.page//meetings/d24-hsv"},{"address":"3201 Triana Blvd SW","approximate":false,"city":"Huntsville","country":"US","day":2,"location":"Near Abogados Centro Legal","name":"Grupo Sendero defe Hsv","notes":null,"postal_code":"35805","region":"Reuniones Españolas de AA","slug":"d24-hsv-Tuesday-19:00","state":"AL","time":"19:00","timezone":"America/Chicago","types":["ES","B"],"url":"https://aa1-es.sober.page//meetings/d24-hsv"},{"address":"114 E. Main St","approximate":false,"city":"Albertville","country":"US","day":5,"location":"Downtown Check Exchange","name":"Grupo Sendero De Vida","notes":"Contact: Victor G (tel. 256-673-8064)\n","postal_code":"35950","region":"Reuniones Españolas de AA","slug":"d24-sendero-Friday-19:30","state":"AL","time":"19:30","timezone":"America/Chicago","types":["ES","B"],"url":"https://aa1-es.sober.page//meetings/d24-sendero"},{"address":"114 E. Main St","approximate":false,"city":"Albertville","country":"US","day":0,"location":"Downtown Check Exchange","name":"Grupo Sendero De Vida","notes":"Contact: Victor G (tel. 256-673-8064)\n","postal_code":"35950","region":"Reuniones Españolas de AA","slug":"d24-sendero-Sunday-19:30","state":"AL","time":"19:30","timezone":"America/Chicago","types":["ES","B"],"url":"https://aa1-es.sober.page//meetings/d24-sendero"},{"address":"114 E. Main St","approximate":false,"city":"Albertville","country":"US","day":3,"location":"Downtown Check Exchange","name":"Grupo Sendero De Vida","notes":"Contact: Victor G (tel. 256-673-8064)\n","postal_code":"35950","region":"Reuniones Españolas de AA","slug":"d24-sendero-Wednesday-19:30","state":"AL","time":"19:30","timezone":"America/Chicago","types":["ES","B"],"url":"https://aa1-es.sober.page//meetings/d24-sendero"},{"address":"1820 6th Ave. SE","approximate":false,"city":"Decatur","country":"US","day":5,"location":"Gateway Shopping Center #G2","name":"Transmitelo (Stairway)","notes":null,"postal_code":"35601","region":"Reuniones Españolas de AA","slug":"d24-transmitelo-Friday-19:30","state":"AL","time":"19:30","timezone":"America/Chicago","types":["ES","B"],"url":"https://aa1-es.sober.page//meetings/d24-transmitelo"},{"address":"1820 6th Ave. SE","approximate":false,"city":"Decatur","country":"US","day":1,"location":"Gateway Shopping Center #G2","name":"Transmitelo (Stairway)","notes":null,"postal_code":"35601","region":"Reuniones Españolas de AA","slug":"d24-transmitelo-Monday-19:30","state":"AL","time":"19:30","timezone":"America/Chicago","types":["ES","B"],"url":"https://aa1-es.sober.page//meetings/d24-transmitelo"},{"address":"1820 6th Ave. SE","approximate":false,"city":"Decatur","country":"US","day":4,"location":"Gateway Shopping Center #G2","name":"Transmitelo (Stairway)","notes":null,"postal_code":"35601","region":"Reuniones Españolas de AA","slug":"d24-transmitelo-Thursday-19:30","state":"AL","time":"19:30","timezone":"America/Chicago","types":["ES","B"],"url":"https://aa1-es.sober.page//meetings/d24-transmitelo"},{"address":"1820 6th Ave. SE","approximate":false,"city":"Decatur","country":"US","day":2,"location":"Gateway Shopping Center #G2","name":"Transmitelo (Stairway)","notes":null,"postal_code":"35601","region":"Reuniones Españolas de AA","slug":"d24-transmitelo-Tuesday-19:30","state":"AL","time":"19:30","timezone":"America/Chicago","types":["ES","B"],"url":"https://aa1-es.sober.page//meetings/d24-transmitelo"},{"address":"1820 6th Ave. SE","approximate":false,"city":"Decatur","country":"US","day":3,"location":"Gateway Shopping Center #G2","name":"Transmitelo (Stairway)","notes":null,"postal_code":"35601","region":"Reuniones Españolas de AA","slug":"d24-transmitelo-Wednesday-19:30","state":"AL","time":"19:30","timezone":"America/Chicago","types":["ES","B"],"url":"https://aa1-es.sober.page//meetings/d24-transmitelo"},{"address":"2240 US-78","approximate":false,"city":"Oxford","country":"US","day":1,"location":"New Life","name":"Grupo Nueva Vida","notes":"Contact: Jesus (tel. 256-770-1487)\n","postal_code":"36203","region":"Reuniones Españolas de AA","slug":"d24-vida-Monday-20:00","state":"AL","time":"20:00","timezone":"America/Chicago","types":["ES","B"],"url":"https://aa1-es.sober.page//meetings/d24-vida"},{"address":"2240 US-78","approximate":false,"city":"Oxford","country":"US","day":0,"location":"New Life","name":"Grupo Nueva Vida","notes":"Contact: Jesus (tel. 256-770-1487)\n","postal_code":"36203","region":"Reuniones Españolas de AA","slug":"d24-vida-Sunday-20:00","state":"AL","time":"20:00","timezone":"America/Chicago","types":["ES","B"],"url":"https://aa1-es.sober.page//meetings/d24-vida"},{"address":"2240 US-78","approximate":false,"city":"Oxford","country":"US","day":3,"location":"New Life","name":"Grupo Nueva Vida","notes":"Contact: Jesus (tel. 256-770-1487)\n","postal_code":"36203","region":"Reuniones Españolas de AA","slug":"d24-vida-Wednesday-20:00","state":"AL","time":"20:00","timezone":"America/Chicago","types":["ES","B"],"url":"https://aa1-es.sober.page//meetings/d24-vida"},{"address":"252 5th Ave NW","approximate":false,"city":"Birmingham","country":"US","day":5,"location":null,"name":"Grupo La Nueva Vision","notes":"Contact: Filiberto Mandina (tel. 205-229-7794)\n","postal_code":"35215","region":"Reuniones Españolas de AA","slug":"d24-vision-Friday-19:30","state":"AL","time":"19:30","timezone":"America/Chicago","types":["ES","B"],"url":"https://aa1-es.sober.page//meetings/d24-vision"},{"address":"252 5th Ave NW","approximate":false,"city":"Birmingham","country":"US","day":1,"location":null,"name":"Grupo La Nueva Vision","notes":"Contact: Filiberto Mandina (tel. 205-229-7794)\n","postal_code":"35215","region":"Reuniones Españolas de AA","slug":"d24-vision-Monday-19:30","state":"AL","time":"19:30","timezone":"America/Chicago","types":["ES","B"],"url":"https://aa1-es.sober.page//meetings/d24-vision"},{"address":"252 5th Ave NW","approximate":false,"city":"Birmingham","country":"US","day":6,"location":null,"name":"Grupo La Nueva Vision","notes":"Contact: Filiberto Mandina (tel. 205-229-7794)\n","postal_code":"35215","region":"Reuniones Españolas de AA","slug":"d24-vision-Saturday-19:30","state":"AL","time":"19:30","timezone":"America/Chicago","types":["ES","B"],"url":"https://aa1-es.sober.page//meetings/d24-vision"},{"address":"252 5th Ave NW","approximate":false,"city":"Birmingham","country":"US","day":3,"location":null,"name":"Grupo La Nueva Vision","notes":"Contact: Filiberto Mandina (tel. 205-229-7794)\n","postal_code":"35215","region":"Reuniones Españolas de AA","slug":"d24-vision-Wednesday-19:30","state":"AL","time":"19:30","timezone":"America/Chicago","types":["ES","B"],"url":"https://aa1-es.sober.page//meetings/d24-vision"},{"address":"1111 East College St","approximate":false,"city":"Florence","country":"US","day":5,"location":"St Joseph Catholic Church","name":"Grupo La Alegria de Vivir","notes":"Contact: Jose (tel. 256-810-8934, 256-856-7201)\n","postal_code":"35630","region":"Reuniones Españolas de AA","slug":"d24-vivir-Friday-19:00","state":"AL","time":"19:00","timezone":"America/Chicago","types":["ES","B"],"url":"https://aa1-es.sober.page//meetings/d24-vivir"},{"address":"1111 East College St","approximate":false,"city":"Florence","country":"US","day":6,"location":"St Joseph Catholic Church","name":"Grupo La Alegria de Vivir","notes":"Contact: Jose (tel. 256-810-8934, 256-856-7201)\n","postal_code":"35630","region":"Reuniones Españolas de AA","slug":"d24-vivir-Saturday-19:00","state":"AL","time":"19:00","timezone":"America/Chicago","types":["ES","B"],"url":"https://aa1-es.sober.page//meetings/d24-vivir"},{"address":"1111 East College St","approximate":false,"city":"Florence","country":"US","day":3,"location":"St Joseph Catholic Church","name":"Grupo La Alegria de Vivir","notes":"Contact: Jose (tel. 256-810-8934, 256-856-7201)\n","postal_code":"35630","region":"Reuniones Españolas de AA","slug":"d24-vivir-Wednesday-19:00","state":"AL","time":"19:00","timezone":"America/Chicago","types":["ES","B"],"url":"https://aa1-es.sober.page//meetings/d24-vivir"}]